[
  {
    "id" : 1,
    "name" : "CFCSN 2020",
    "type" : "Computer Graphics",
    "date": "2020-12-16",
    "submitPaper": "2020-11-30",
    "description" : "2020 2nd International Conference on Frontiers of Control and Sensor Networks (CFCSN 2020)",
    "latitude" : 13.7544238,
    "longitude" : 100.4930399,
    "url" : "https://www.call4paper.com/cfp/detail/event/ECATWKQM81918602?v=subject",
    "saved" : 0
  },
  {
    "id" : 2,
    "name" : "ADIP--ACM, EI, Scopus 2020",
    "type" : "Computer Graphics",
    "date": "2020-12-18",
    "submitPaper": "2020-08-01",
    "description" : "ACM--2020 2nd Asia Digital Image Processing Conference (ADIP 2020)--EI Compendex, Scopus (ADIP--ACM, EI, Scopus 2020)",
    "latitude" : 35.021041,
    "longitude" : 135.7556075,
    "url" : "https://www.call4paper.com/cfp/detail/event/IUNGUPME34224696?v=subject",
    "saved" : 0
  },
  {
    "id" : 3,
    "name" : "InWeS 2020",
    "type" : "Computer Graphics",
    "date": "2020-12-19",
    "submitPaper": "2020-11-28",
    "description" : "11th International Conference on Internet Engineering & Web Services (InWeS 2020)",
    "latitude" : -33.8548157,
    "longitude" : 151.2164539,
    "url" : "https://www.call4paper.com/cfp/detail/event/GOUCRLHK28967694?v=subject",
    "saved" : 0
  },
  {
    "id" : 4,
    "name" : "SPPR 2020",
    "type" : "Computer Graphics",
    "date": "2020-12-19",
    "submitPaper": "2020-12-05",
    "description" : "9th International Conference on Signal, Image Processing and Pattern Recognition (SPPR 2020)",
    "latitude" : -33.8548157,
    "longitude" : 151.2164539,
    "url" : "https://www.call4paper.com/cfp/detail/event/LSAIOYZS46881865?v=subject",
    "saved" : 0
  },
  {
    "id" : 5,
    "name" : "ACM--ICVIP--Ei Compendex, Scopus 2020",
    "type" : "Computer Graphics",
    "date": "2020-12-25",
    "submitPaper": "2020-08-20",
    "description" : "ACM--2020 The 4th International Conference on Video and Image Processing (ICVIP 2020)--EI Compendex, Scopus (ACM--ICVIP--Ei Compendex, Scopus 2020)",
    "latitude" : 34.3430507,
    "longitude" : 108.9352154,
    "url" : "https://www.call4paper.com/cfp/detail/event/YYOHVJWI44564845?v=subject",
    "saved" : 0
  },
  {
    "id" : 6,
    "name" : "ICIGP-Ei and Scopus 2021",
    "type" : "Computer Graphics",
    "date": "2021-01-01",
    "submitPaper": "2020-08-20",
    "description" : "2021 The 4th International Conference on Image and Graphics Processing (ICIGP 2021)--Ei Compendex, Scopus (ICIGP-Ei and Scopus 2021)",
    "latitude" : 18.2534658,
    "longitude" : 109.5034392,
    "url" : "https://www.call4paper.com/cfp/detail/event/EEPLEHXS78930079?v=subject",
    "saved" : 0
  },
  {
    "id" : 7,
    "name" : "IFSP--Ei, Scopus 2021",
    "type" : "Computer Graphics",
    "date": "2021-01-01",
    "submitPaper": "2020-08-20",
    "description" : "2021 International Forum on Signal Processing (IFSP 2021)--Ei Compendex, Scopus (IFSP--Ei, Scopus 2021)",
    "latitude" : 18.2534658,
    "longitude" : 109.5034392,
    "url" : "https://www.call4paper.com/cfp/detail/event/UYAJQLMN96335569?v=subject",
    "saved" : 0
  },
  {
    "id" : 8,
    "name" : "CADL 2020",
    "type" : "Computer Graphics",
    "date": "2021-01-10",
    "submitPaper": "2020-10-10",
    "description" : "Workshop on Computational Aspects of Deep Learning - ICPR 2020 (CADL 2020)",
    "latitude" : 45.4668,
    "longitude" : 9.1905,
    "url" : "https://www.call4paper.com/cfp/detail/event/RVQPVONR41055173?v=subject",
    "saved" : 0
  },
  {
    "id" : 9,
    "name" : "WAAMI 2020",
    "type" : "Computer Graphics",
    "date": "2021-01-10",
    "submitPaper": "2020-10-03",
    "description" : "First Workshop on Analysis of Aerial Motion Imagery (WAAMI 2020)",
    "latitude" : 45.4668,
    "longitude" : 9.1905,
    "url" : "https://www.call4paper.com/cfp/detail/event/KJHUWLHB58437556?v=subject",
    "saved" : 0
  },
  {
    "id" : 10,
    "name" : "VIQA 2020",
    "type" : "Computer Graphics",
    "date": "2021-01-11",
    "submitPaper": "2020-10-17",
    "description" : "The First International Workshop on Video Question Answering and Image Question Answering (VIQA 2020)",
    "latitude" : 45.4668,
    "longitude" : 9.1905,
    "url" : "https://www.call4paper.com/cfp/detail/event/IYYLFRRM01449691?v=subject",
    "saved" : 0
  },
  {
    "id" : 11,
    "name" : "MMDLCA 2020",
    "type" : "Computer Graphics",
    "date": "2021-01-11",
    "submitPaper": "2020-10-15",
    "description" : "International Workshop on Multi-Modal Deep Learning: Challenges and Applications 2020 (MMDLCA 2020)",
    "latitude" : 45.4668,
    "longitude" : 9.1905,
    "url" : "https://www.call4paper.com/cfp/detail/event/HNHMKDRW23041761?v=subject",
    "saved" : 0
  },
  {
    "id" : 15,
    "name" : "ICHVR 2021",
    "type" : "Computer Graphics",
    "date": "2021-02-19",
    "submitPaper": "2020-05-31",
    "description" : "2021 International Conference on Haptics and Virtual Reality (ICHVR 2021)",
    "latitude" : 37.5666791,
    "longitude" : 126.9782914,
    "url" : "https://www.call4paper.com/cfp/detail/event/VNDKPZPS43714917?v=subject",
    "saved" : 0
  },
  {
    "id" : 16,
    "name" : "CFDSP 2021",
    "type" : "Computer Graphics",
    "date": "2021-02-19",
    "submitPaper": "2020-12-31",
    "description" : "2021 International Conference on Frontiers of Digital Signal Processing (CFDSP 2021)",
    "latitude" : 37.5666791,
    "longitude" : 126.9782914,
    "url" : "https://www.call4paper.com/cfp/detail/event/XFCPHULZ85600613?v=subject",
    "saved" : 0
  },
  {
    "id" : 17,
    "name" : "ADCO 2021",
    "type" : "Computer Graphics",
    "date": "2021-02-20",
    "submitPaper": "2020-12-06",
    "description" : "8th International Conference on Advanced Computing (ADCO 2021)",
    "latitude" : 25.0750095,
    "longitude" : 55.18876088183319,
    "url" : "https://www.call4paper.com/cfp/detail/event/JXNTSTPJ61047357?v=subject",
    "saved" : 0
  },
  {
    "id" : 18,
    "name" : "ICSCA--ACM, Ei, Scopus 2021",
    "type" : "Computer Graphics",
    "date": "2021-02-23",
    "submitPaper": "2020-10-05",
    "description" : "ACM--2021 10th International Conference on Software and Computer Applications (ICSCA 2021)--EI Compendex, Scopus (ICSCA--ACM, Ei, Scopus 2021)",
    "latitude" : 3.1516964,
    "longitude" : 101.6942371,
    "url" : "https://www.call4paper.com/cfp/detail/event/TFZTMWVI16386536?v=subject",
    "saved" : 0
  },
  {
    "id" : 19,
    "name" : "EI/SCOPUS-CGIIT 2021",
    "type" : "Computer Graphics",
    "date": "2021-02-25",
    "submitPaper": "2020-08-25",
    "description" : "5th International Conference on Graphics, Images and Interactive Techniques (CGIIT 2021) (EI/SCOPUS-CGIIT 2021)",
    "latitude" : 21.4845804,
    "longitude" : 109.1164835,
    "url" : "https://www.call4paper.com/cfp/detail/event/GXPFNAVO69861697?v=subject",
    "saved" : 0
  },
  {
    "id" : 20,
    "name" : "EI-CMVIT 2021",
    "type" : "Computer Graphics",
    "date": "2021-02-25",
    "submitPaper": "2020-08-25",
    "description" : "5th International Conference on Machine Vision and Information Technology (CMVIT 2021) (EI-CMVIT 2021)",
    "latitude" : 21.4845804,
    "longitude" : 109.1164835,
    "url" : "https://www.call4paper.com/cfp/detail/event/PASWHBMA46047772?v=subject",
    "saved" : 0
  },
  {
    "id" : 21,
    "name" : "SCOPUS-CMVIT 2021",
    "type" : "Computer Graphics",
    "date": "2021-02-25",
    "submitPaper": "2020-10-30",
    "description" : "5th International Conference on Machine Vision and Information Technology (CMVIT 2021) (SCOPUS-CMVIT 2021)",
    "latitude" : -36.852095,
    "longitude" : 174.7631803,
    "url" : "https://www.call4paper.com/cfp/detail/event/PUHFBWZB63165167?v=subject",
    "saved" : 0
  },
  {
    "id" : 22,
    "name" : "EI/SCOPUS-CGIIT 2021",
    "type" : "Computer Graphics",
    "date": "2021-02-25",
    "submitPaper": "2020-10-30",
    "description" : "5th International Conference on Graphics, Images and Interactive Techniques (CGIIT 2021) (EI/SCOPUS-CGIIT 2021)",
    "latitude" : -36.852095,
    "longitude" : 174.7631803,
    "url" : "https://www.call4paper.com/cfp/detail/event/ATLKXBEL74374978?v=subject",
    "saved" : 0
  },
  {
    "id" : 23,
    "name" : "IPRIA 2021",
    "type" : "Computer Graphics",
    "date": "2021-03-03",
    "submitPaper": "2020-12-01",
    "description" : "5th International conference on Pattern Recognition and Image Analysis (IPRIA 2021)",
    "latitude" : 33.9874763,
    "longitude" : 51.4429723,
    "url" : "https://www.call4paper.com/cfp/detail/event/CFQVBYXW15223589?v=subject",
    "saved" : 0
  },
  {
    "id" : 24,
    "name" : "MMasia 2020",
    "type" : "Computer Graphics",
    "date": "2021-03-07",
    "submitPaper": "2020-09-21",
    "description" : "The 2nd ACM International Conference on Multimedia in Asia (MMasia 2020)",
    "latitude" : 1.2904753,
    "longitude" : 103.8520359,
    "url" : "https://www.call4paper.com/cfp/detail/event/KZRBWGGO36559904?v=subject",
    "saved" : 0
  },
  {
    "id" : 25,
    "name" : "ICPRS 2021",
    "type" : "Computer Graphics",
    "date": "2021-03-15",
    "submitPaper": "2020-09-25",
    "description" : "11th International Conference on Pattern Recognition Systems (ICPRS 2021)",
    "latitude" : 44.4939936,
    "longitude" : 11.3576917,
    "url" : "https://www.call4paper.com/cfp/detail/event/AGMGDTUZ88210699?v=subject",
    "saved" : 0
  },
  {
    "id" : 26,
    "name" : "IVSP--EI Compendex, Scopus 2021",
    "type" : "Computer Graphics",
    "date": "2021-03-19",
    "submitPaper": "2020-11-05",
    "description" : "2021 3rd International Conference on Image, Video and Signal Processing (IVSP 2021)--Ei Compendex, Scopus (IVSP--EI Compendex, Scopus 2021)",
    "latitude" : 1.357107,
    "longitude" : 103.8194992,
    "url" : "https://www.call4paper.com/cfp/detail/event/JRKVUPYF28341485?v=subject",
    "saved" : 0
  },
  {
    "id" : 27,
    "name" : "MLHMI--Ei Compendex and Scopus 2021",
    "type" : "Computer Graphics",
    "date": "2021-03-19",
    "submitPaper": "2020-11-05",
    "description" : "2021 2nd International Conference on Machine Learning and Human-Computer Interaction (MLHMI 2021)--Ei Compendex, Scopus (MLHMI--Ei Compendex and Scopus 2021)",
    "latitude" : 1.357107,
    "longitude" : 103.8194992,
    "url" : "https://www.call4paper.com/cfp/detail/event/HNVGQZIQ61254684?v=subject",
    "saved" : 0
  },
  {
    "id" : 28,
    "name" : "IVSP--EI, Scopus 2021",
    "type" : "Computer Graphics",
    "date": "2021-03-19",
    "submitPaper": "2020-11-05",
    "description" : "2021 3rd International Conference on Image, Video and Signal Processing (IVSP 2021)--Ei Compendex, Scopus (IVSP--EI, Scopus 2021)",
    "latitude" : 1.357107,
    "longitude" : 103.8194992,
    "url" : "https://www.call4paper.com/cfp/detail/event/KUVELEGJ14655434?v=subject",
    "saved" : 0
  },
  {
    "id" : 29,
    "name" : "SIPPR 2021",
    "type" : "Computer Graphics",
    "date": "2021-04-16",
    "submitPaper": "2020-12-31",
    "description" : "2021 International Symposium on Signal, Image Processing and Pattern Recognition (SIPPR 2021)",
    "latitude" : 10.7758439,
    "longitude" : 106.7017555,
    "url" : "https://www.call4paper.com/cfp/detail/event/KZFVDLUC16060381?v=subject",
    "saved" : 0
  },
  {
    "id" : 30,
    "name" : "EI/SCOPUS-DMCIT 2021",
    "type" : "Computer Graphics",
    "date": "2021-04-16",
    "submitPaper": "2020-10-15",
    "description" : "5th International Conference on Data Mining, Communications and Information Technology (DMCIT 2021) (EI/SCOPUS-DMCIT 2021)",
    "latitude" : 30.2489634,
    "longitude" : 120.2052342,
    "url" : "https://www.call4paper.com/cfp/detail/event/ANPEBZMZ69461360?v=subject",
    "saved" : 0
  },
  {
    "id" : 31,
    "name" : "PacificVis 2021",
    "type" : "Computer Graphics",
    "date": "2021-04-19",
    "submitPaper": "2020-10-02",
    "description" : "IEEE Pacific Visualization Symposium 2021 (PacificVis 2021)",
    "latitude" : 39.0856735,
    "longitude" : 117.1951073,
    "url" : "https://www.call4paper.com/cfp/detail/event/BHASCUZW31183821?v=subject",
    "saved" : 0
  },	{
  "id" : 32,
  "name" : "BDA 2020",
  "type" : "Artificial Intelligence",
  "date": "2020-12-15",
  "submitPaper": "2020-07-13",
  "description" : "Eight International Conference on Big Data Analytics (BDA 2020)",
  "latitude" : 28.9468051,
  "longitude" : 77.10145281027192,
  "url" : "https://www.call4paper.com/cfp/detail/event/FYKILJRC10967175?v=subject",
  "saved" : 0
},
  {
    "id" : 33,
    "name" : "NL4XAI 2021",
    "type" : "Artificial Intelligence",
    "date": "2020-12-15",
    "submitPaper": "2020-09-20",
    "description" : "2nd Workshop on Interactive Natural Language Technology for Explainable Artificial Intelligence (NL4XAI 2021)",
    "latitude" : 53.3497645,
    "longitude" : -6.2602732,
    "url" : "https://www.call4paper.com/cfp/detail/event/KDSRFTLT58718394?v=subject",
    "saved" : 0
  },
  {
    "id" : 34,
    "name" : "CI4WE 2020",
    "type" : "Artificial Intelligence",
    "date": "2020-12-15",
    "submitPaper": "2020-10-15",
    "description" : "Special Session Computational Intelligence for Web Economy (CI4WE 2020)",
    "latitude" : 43.59047185,
    "longitude" : 3.8595132132013186,
    "url" : "https://www.call4paper.com/cfp/detail/event/BVPEXZIY97628251?v=subject",
    "saved" : 0
  },
  {
    "id" : 35,
    "name" : "HiPC 2020",
    "type" : "Artificial Intelligence",
    "date": "2020-12-16",
    "submitPaper": "2020-06-15",
    "description" : "27th IEEE International Conference on High Performance Computing, Data, and Analytics (HiPC 2020)",
    "latitude" : 18.521428,
    "longitude" : 73.8544541,
    "url" : "https://www.call4paper.com/cfp/detail/event/YFUFLIBO01227770?v=subject",
    "saved" : 0
  },
  {
    "id" : 36,
    "name" : "IWRI 2020",
    "type" : "Artificial Intelligence",
    "date": "2020-12-16",
    "submitPaper": "2020-09-20",
    "description" : "IEEE BIBM The International Workshop on RNA Informatics (IWRI 2020)",
    "latitude" : 37.5666791,
    "longitude" : 126.9782914,
    "url" : "https://www.call4paper.com/cfp/detail/event/FCKMRFSN57111909?v=subject",
    "saved" : 0
  },
  {
    "id" : 37,
    "name" : "ICRE--EI, Scopus 2020",
    "type" : "Artificial Intelligence",
    "date": "2020-12-16",
    "submitPaper": "2020-08-01",
    "description" : "2020 5th International Conference on Reliability Engineering (ICRE 2020)--EI Compendex, Scopus (ICRE--EI, Scopus 2020)",
    "latitude" : 38.1112268,
    "longitude" : 13.3524434,
    "url" : "https://www.call4paper.com/cfp/detail/event/TLNDGSRT29024156?v=subject",
    "saved" : 0
  },
  {
    "id" : 38,
    "name" : "ICSRS--Scopus & EI Compendex 2020",
    "type" : "Artificial Intelligence",
    "date": "2020-12-16",
    "submitPaper": "2020-08-01",
    "description" : "2020 5th International Conference on System Reliability and Safety (ICSRS 2020)--Scopus & EI Compendex (ICSRS--Scopus & EI Compendex 2020)",
    "latitude" : 38.1112268,
    "longitude" : 13.3524434,
    "url" : "https://www.call4paper.com/cfp/detail/event/XWODORQF33364611?v=subject",
    "saved" : 0
  },
  {
    "id" : 39,
    "name" : "ICPET 2020",
    "type" : "Artificial Intelligence",
    "date": "2020-12-16",
    "submitPaper": "2020-10-01",
    "description" : "2020 International Conference on Promising Electronic Technologies (ICPET 2020)",
    "latitude" : 31.4770571,
    "longitude" : 34.40493124714024,
    "url" : "https://www.call4paper.com/cfp/detail/event/LIZYGAZC30525411?v=subject",
    "saved" : 0
  },
  {
    "id" : 40,
    "name" : "DSANRM 2020",
    "type" : "Artificial Intelligence",
    "date": "2020-12-16",
    "submitPaper": "2020-10-15",
    "description" : "Virtual Workshop on Data Science for Agriculture and Natural Resource Management (DSANRM 2020)",
    "latitude" : 22.3511148,
    "longitude" : 78.6677428,
    "url" : "https://www.call4paper.com/cfp/detail/event/EGTQKXCG78724269?v=subject",
    "saved" : 0
  },
  {
    "id" : 41,
    "name" : "AINSC 2020",
    "type" : "Artificial Intelligence",
    "date": "2020-12-17",
    "submitPaper": "2020-09-17",
    "description" : "The 16th International Conference on Mobility, Sensing and Networking (MSN 2020) Workshop on Advances in Intelligent Mobile Networks for Smart Cities (AINSC) (AINSC 2020)",
    "latitude" : 33.8898728,
    "longitude" : 130.70856204710728,
    "url" : "https://www.call4paper.com/cfp/detail/event/AXDLHFMJ17616437?v=subject",
    "saved" : 0
  },
  {
    "id" : 42,
    "name" : "ICS 2020",
    "type" : "Artificial Intelligence",
    "date": "2020-12-17",
    "submitPaper": "2020-09-01",
    "description" : "2020 International Computer Symposium (ICS 2020)",
    "latitude" : 22.9912348,
    "longitude" : 120.184982,
    "url" : "https://www.call4paper.com/cfp/detail/event/ZWDMOTZS27083641?v=subject",
    "saved" : 0
  },
  {
    "id" : 43,
    "name" : "",
    "type" : "Artificial Intelligence",
    "date": "2020-12-17",
    "submitPaper": "2020-09-08",
    "description" : "[Deadline Extended] ICS 2020",
    "latitude" : 23.9739374,
    "longitude" : 120.9820179,
    "url" : "https://www.call4paper.com/cfp/detail/event/ITPNUUOL04808400?v=subject",
    "saved" : 0
  },
  {
    "id" : 44,
    "name" : "EAI BDCC 2020",
    "type" : "Artificial Intelligence",
    "date": "2020-12-18",
    "submitPaper": "2020-07-10",
    "description" : "BDCC 2020 - 3rd EAI International Conference on Big Data Innovation for Sustainable Cognitive Computing (EAI BDCC 2020)",
    "latitude" : 11.0018115,
    "longitude" : 76.9628425,
    "url" : "https://www.call4paper.com/cfp/detail/event/RPDLEWVI43305064?v=subject",
    "saved" : 0
  },
  {
    "id" : 45,
    "name" : "AICCC--ACM, EI, Scopus 2020",
    "type" : "Artificial Intelligence",
    "date": "2020-12-18",
    "submitPaper": "2020-08-01",
    "description" : "ACM--2020 3rd Artificial Intelligence and Cloud Computing Conference (AICCC 2020)--EI Compendex, Scopus (AICCC--ACM, EI, Scopus 2020)",
    "latitude" : 35.021041,
    "longitude" : 135.7556075,
    "url" : "https://www.call4paper.com/cfp/detail/event/GVTWXKXF25673396?v=subject",
    "saved" : 0
  },
  {
    "id" : 46,
    "name" : "ACM--AICCC--EI Compendex, Scopus 2020",
    "type" : "Artificial Intelligence",
    "date": "2020-12-18",
    "submitPaper": "2020-08-01",
    "description" : "ACM--2020 3rd Artificial Intelligence and Cloud Computing Conference (AICCC 2020)--EI Compendex, Scopus (ACM--AICCC--EI Compendex, Scopus 2020)",
    "latitude" : 35.021041,
    "longitude" : 135.7556075,
    "url" : "https://www.call4paper.com/cfp/detail/event/HFEOUSON03921183?v=subject",
    "saved" : 0
  },
  {
    "id" : 49,
    "name" : "SIGEM 2020",
    "type" : "Artificial Intelligence",
    "date": "2020-12-18",
    "submitPaper": "2020-11-21",
    "description" : "6th International Conference on Signal, Image Processing and  Embedded Systems (SIGEM 2020)",
    "latitude" : -33.8548157,
    "longitude" : 151.2164539,
    "url" : "https://www.call4paper.com/cfp/detail/event/YLUYBRSY86013964?v=subject",
    "saved" : 0
  },
  {
    "id" : 50,
    "name" : "NATL 2020",
    "type" : "Artificial Intelligence",
    "date": "2020-12-18",
    "submitPaper": "2020-11-07",
    "description" : "6th International Conference on Natural Language Computing (NATL 2020)",
    "latitude" : -33.8548157,
    "longitude" : 151.2164539,
    "url" : "https://www.call4paper.com/cfp/detail/event/QRLMVHYM83475372?v=subject",
    "saved" : 0
  },
  {
    "id" : 51,
    "name" : "",
    "type" : "Artificial Intelligence",
    "date": "2020-12-18",
    "submitPaper": "2020-12-17",
    "description" : "Free Zoom 18 and 29 AI and ubiquitous city workshops",
    "latitude" : 22.2793278,
    "longitude" : 114.1628131,
    "url" : "https://www.call4paper.com/cfp/detail/event/GICJXDTP78497980?v=subject",
    "saved" : 0
  },
  {
    "id" : 52,
    "name" : "SCAI 2020",
    "type" : "Artificial Intelligence",
    "date": "2020-12-19",
    "submitPaper": "2020-10-03",
    "description" : "9th International Conference on Soft Computing, Artificial Intelligence and Applications (SCAI 2020)",
    "latitude" : -33.8548157,
    "longitude" : 151.2164539,
    "url" : "https://www.call4paper.com/cfp/detail/event/JAWDVZTC02494281?v=subject",
    "saved" : 0
  },
  {
    "id" : 53,
    "name" : "InWeS 2020",
    "type" : "Artificial Intelligence",
    "date": "2020-12-19",
    "submitPaper": "2020-10-24",
    "description" : "11th International Conference on Internet Engineering & Web Services (InWeS 2020)",
    "latitude" : -33.8548157,
    "longitude" : 151.2164539,
    "url" : "https://www.call4paper.com/cfp/detail/event/BUKOYFYQ34032231?v=subject",
    "saved" : 0
  },
  {
    "id" : 54,
    "name" : "SCAI 2020",
    "type" : "Artificial Intelligence",
    "date": "2020-12-19",
    "submitPaper": "2020-11-07",
    "description" : "9th International Conference on Soft Computing, Artificial Intelligence and Applications (SCAI 2020)",
    "latitude" : -33.8548157,
    "longitude" : 151.2164539,
    "url" : "https://www.call4paper.com/cfp/detail/event/BAEWXOGT62504204?v=subject",
    "saved" : 0
  },
  {
    "id" : 55,
    "name" : "NLAI 2020",
    "type" : "Artificial Intelligence",
    "date": "2020-12-19",
    "submitPaper": "2020-11-28",
    "description" : "International Conference on NLP & Artificial Intelligence Techniques (NLAI 2020)",
    "latitude" : -33.8548157,
    "longitude" : 151.2164539,
    "url" : "https://www.call4paper.com/cfp/detail/event/YXWLHYQI67101087?v=subject",
    "saved" : 0
  },
  {
    "id" : 56,
    "name" : "SCAI 2020",
    "type" : "Artificial Intelligence",
    "date": "2020-12-19",
    "submitPaper": "2020-11-28",
    "description" : "9th International Conference on Soft Computing, Artificial Intelligence and Applications (SCAI 2020)",
    "latitude" : -33.8548157,
    "longitude" : 151.2164539,
    "url" : "https://www.call4paper.com/cfp/detail/event/HBQIATLF55882805?v=subject",
    "saved" : 0
  },
  {
    "id" : 57,
    "name" : "NLAI 2020",
    "type" : "Artificial Intelligence",
    "date": "2020-12-19",
    "submitPaper": "2020-12-05",
    "description" : "International Conference on NLP & Artificial Intelligence Techniques (NLAI 2020)",
    "latitude" : -33.8548157,
    "longitude" : 151.2164539,
    "url" : "https://www.call4paper.com/cfp/detail/event/ZMPYWJQB09096485?v=subject",
    "saved" : 0
  },
  {
    "id" : 58,
    "name" : "IEEE 14th MCSoC 2020",
    "type" : "Artificial Intelligence",
    "date": "2020-12-20",
    "submitPaper": "2020-05-07",
    "description" : "14th IEEE International Symposium on Embedded Multicore/Manycore (MCSoC 2020) (IEEE 14th MCSoC 2020)",
    "latitude" : 1.357107,
    "longitude" : 103.8194992,
    "url" : "https://www.call4paper.com/cfp/detail/event/LTNCDAKF56649585?v=subject",
    "saved" : 0
  },
  {
    "id" : 59,
    "name" : "MedPRAI 2020",
    "type" : "Artificial Intelligence",
    "date": "2020-12-20",
    "submitPaper": "2020-06-15",
    "description" : "4th Mediterranean Conference on Pattern Recognition and Artificial Intelligence (MedPRAI 2020)",
    "latitude" : 36.4006557,
    "longitude" : 10.6190626,
    "url" : "https://www.call4paper.com/cfp/detail/event/ZRJECOAU77981836?v=subject",
    "saved" : 0
  },
  {
    "id" : 60,
    "name" : "ICMLANT 2020",
    "type" : "Artificial Intelligence",
    "date": "2020-12-20",
    "submitPaper": "2020-08-10",
    "description" : "IEEE International Conference on Machine Learning and Applied Network Technologies (ICMLANT 2020)",
    "latitude" : 17.38878595,
    "longitude" : 78.46106473453146,
    "url" : "https://www.call4paper.com/cfp/detail/event/MSZFRKGJ72846480?v=subject",
    "saved" : 0
  },
  {
    "id" : 61,
    "name" : "ICNB--Ei Compendex, Scopus 2020",
    "type" : "Robotics",
    "date": "2020-12-15",
    "submitPaper": "2020-07-25",
    "description" : "2020 4th International Conference on Nanomaterials and Biomaterials (ICNB 2020)--Ei Compendex, Scopus (ICNB--Ei Compendex, Scopus 2020)",
    "latitude" : 35.6828387,
    "longitude" : 139.7594549,
    "url" : "https://www.call4paper.com/cfp/detail/event/CNZGTLIJ06304537?v=subject",
    "saved" : 0
  },
  {
    "id" : 62,
    "name" : "AIAT--EI Compendex, Scopus 2020",
    "type" : "Robotics",
    "date": "2020-12-26",
    "submitPaper": "2020-08-15",
    "description" : "2020 International Conference on Artificial Intelligence and Application Technologies (AIAT 2020)--EI Compendex, Scopus (AIAT--EI Compendex, Scopus 2020)",
    "latitude" : 35.6828387,
    "longitude" : 139.7594549,
    "url" : "https://www.call4paper.com/cfp/detail/event/KKBWCTGF29869218?v=subject",
    "saved" : 0
  },
  {
    "id" : 63,
    "name" : "ICACIE-2020",
    "type" : "Robotics",
    "date": "2020-12-28",
    "submitPaper": "2020-04-15",
    "description" : "International Conference on Advanced Computing and Intelligent Engineering (ICACIE-2020)",
    "latitude" : 25.0750095,
    "longitude" : 55.18876088183319,
    "url" : "https://www.call4paper.com/cfp/detail/event/BVOPIQUK39916688?v=subject",
    "saved" : 0
  },
  {
    "id" : 64,
    "name" : "IWROV 2021",
    "type" : "Robotics",
    "date": "2021-01-15",
    "submitPaper": "2020-10-31",
    "description" : "2021 International Workshop on Remote Operated Vehicle(IWROV 2021)",
    "latitude" : 1.2904753,
    "longitude" : 103.8520359,
    "url" : "https://www.call4paper.com/cfp/detail/event/AJRNSYUO05404099?v=subject",
    "saved" : 0
  },
  {
    "id" : 65,
    "name" : "IWROV 2021",
    "type" : "Robotics",
    "date": "2021-01-15",
    "submitPaper": "2020-12-15",
    "description" : "2021 International Workshop on Remote Operated Vehicle (IWROV 2021)",
    "latitude" : 1.2904753,
    "longitude" : 103.8520359,
    "url" : "https://www.call4paper.com/cfp/detail/event/SFABWAEQ09261899?v=subject",
    "saved" : 0
  },
  {
    "id" : 66,
    "name" : "AIAP 2021",
    "type" : "Robotics",
    "date": "2021-01-23",
    "submitPaper": "2020-12-05",
    "description" : "8th International Conference on Artificial Intelligence and Applications (AIAP 2021)",
    "latitude" : 47.3744489,
    "longitude" : 8.5410422,
    "url" : "https://www.call4paper.com/cfp/detail/event/QDVVRJPC08855339?v=subject",
    "saved" : 0
  },
  {
    "id" : 67,
    "name" : "UVS-Oman 2021",
    "type" : "Robotics",
    "date": "2021-02-08",
    "submitPaper": "2020-09-15",
    "description" : "The 2nd International Conference on Unmanned Vehicle Systems (UVS-Oman 2021) - IEEE",
    "latitude" : 23.5882019,
    "longitude" : 58.3829448,
    "url" : "https://www.call4paper.com/cfp/detail/event/FBIFOWXI75569772?v=subject",
    "saved" : 0
  },
  {
    "id" : 68,
    "name" : "ADCO 2021",
    "type" : "Robotics",
    "date": "2021-02-20",
    "submitPaper": "2020-11-08",
    "description" : "8th International Conference on Advanced Computing (ADCO 2021)",
    "latitude" : 25.0750095,
    "longitude" : 55.18876088183319,
    "url" : "https://www.call4paper.com/cfp/detail/event/QDIFMQDQ34376117?v=subject",
    "saved" : 0
  },
  {
    "id" : 69,
    "name" : "RTEE 2021",
    "type" : "Robotics",
    "date": "2021-02-20",
    "submitPaper": "2020-11-29",
    "description" : "7th International Conference on Recent Trends in Electrical Engineering (RTEE 2021)",
    "latitude" : 25.0750095,
    "longitude" : 55.18876088183319,
    "url" : "https://www.call4paper.com/cfp/detail/event/GRBDBKRE15893199?v=subject",
    "saved" : 0
  },
  {
    "id" : 70,
    "name" : "ICMAA--EI Compendex, Scopus 2021",
    "type" : "Robotics",
    "date": "2021-02-26",
    "submitPaper": "2020-09-30",
    "description" : "2021 The 5th International Conference on Mechanical, Aeronautical and Automotive Engineering (ICMAA 2021)--EI Compendex, Scopus (ICMAA--EI Compendex, Scopus 2021)",
    "latitude" : 1.357107,
    "longitude" : 103.8194992,
    "url" : "https://www.call4paper.com/cfp/detail/event/LTHBTJVB00279676?v=subject",
    "saved" : 0
  },
  {
    "id" : 71,
    "name" : "IC4M 2021-Scopus, CPCI (Web of Science), Compendex",
    "type" : "Robotics",
    "date": "2021-03-06",
    "submitPaper": "2020-12-15",
    "description" : "International Conference on Advances in  Materials, Mechanics, Mechatronics and Manufacturing (IC4M 2021-Scopus, CPCI (Web of Science), Compendex)",
    "latitude" : 23.8143419,
    "longitude" : 77.5340719,
    "url" : "https://www.call4paper.com/cfp/detail/event/ZIJQTFDG81016401?v=subject",
    "saved" : 0
  },
  {
    "id" : 72,
    "name" : "ISoIRS 2021",
    "type" : "Robotics",
    "date": "2021-03-12",
    "submitPaper": "2020-12-31",
    "description" : "2021 2nd International Symposium on Intelligent Robotics and Systems (ISoIRS 2021)",
    "latitude" : 30.2489634,
    "longitude" : 120.2052342,
    "url" : "https://www.call4paper.com/cfp/detail/event/YOTNGVCD44926064?v=subject",
    "saved" : 0
  },
  {
    "id" : 73,
    "name" : "APCRAS 2021",
    "type" : "Robotics",
    "date": "2021-03-12",
    "submitPaper": "2020-12-31",
    "description" : "2021 2nd Asia-Pacific Conference on Robotics and Autonomous Systems (APCRAS 2021)",
    "latitude" : 30.2489634,
    "longitude" : 120.2052342,
    "url" : "https://www.call4paper.com/cfp/detail/event/EQXALKOU72598595?v=subject",
    "saved" : 0
  },
  {
    "id" : 74,
    "name" : "IWoFR 2021",
    "type" : "Robotics",
    "date": "2021-03-12",
    "submitPaper": "2020-12-31",
    "description" : "2021 2nd International Workshop on Field Robotics (IWoFR 2021)",
    "latitude" : 30.2489634,
    "longitude" : 120.2052342,
    "url" : "https://www.call4paper.com/cfp/detail/event/EZOFBTZA63601141?v=subject",
    "saved" : 0
  },
  {
    "id" : 75,
    "name" : "NPSE 2021",
    "type" : "Robotics",
    "date": "2021-03-18",
    "submitPaper": "2021-01-22",
    "description" : "New Perspectives in Science Education Virtual Conference (NPSE 2021)",
    "latitude" : 43.7698712,
    "longitude" : 11.2555757,
    "url" : "https://www.call4paper.com/cfp/detail/event/RESVMEUC24549637?v=subject",
    "saved" : 0
  },
  {
    "id" : 76,
    "name" : "ACM--ICMAI--EI and Scopus 2021",
    "type" : "Robotics",
    "date": "2021-03-19",
    "submitPaper": "2020-11-05",
    "description" : "ACM--2021 6th International Conference on Mathematics and Artificial Intelligence (ICMAI 2021)--Ei Compendex, Scopus (ACM--ICMAI--EI and Scopus 2021)",
    "latitude" : 30.6598628,
    "longitude" : 104.0633717,
    "url" : "https://www.call4paper.com/cfp/detail/event/BVBZARCH17177980?v=subject",
    "saved" : 0
  },
  {
    "id" : 77,
    "name" : "ICRSA--Ei Compendex, Scopus 2021",
    "type" : "Robotics",
    "date": "2021-04-09",
    "submitPaper": "2020-12-10",
    "description" : "2021 4th International Conference on Robot Systems and Applications (ICRSA 2021)--Ei Compendex, Scopus (ICRSA--Ei Compendex, Scopus 2021)",
    "latitude" : 30.6598628,
    "longitude" : 104.0633717,
    "url" : "https://www.call4paper.com/cfp/detail/event/IDEQNEXO93809962?v=subject",
    "saved" : 0
  },
  {
    "id" : 78,
    "name" : "ISMSI--Ei, Scopus 2021",
    "type" : "Robotics",
    "date": "2021-04-10",
    "submitPaper": "2020-11-20",
    "description" : "2021 5th International Conference on Intelligent Systems, Metaheuristics & Swarm Intelligence (ISMSI 2021)--Ei Compendex, Scopus (ISMSI--Ei, Scopus 2021)",
    "latitude" : -4.6232085,
    "longitude" : 55.452359,
    "url" : "https://www.call4paper.com/cfp/detail/event/HBKWQFHP47197407?v=subject",
    "saved" : 0
  },
  {
    "id" : 79,
    "name" : "ICMSR--Ei Compendex, Scopus 2021",
    "type" : "Robotics",
    "date": "2021-04-21",
    "submitPaper": "2020-11-20",
    "description" : "2021 the 7th International Conference on Mechatronics System and Robots (ICMSR 2021)--Ei Compendex, Scopus (ICMSR--Ei Compendex, Scopus 2021)",
    "latitude" : 22.2793278,
    "longitude" : 114.1628131,
    "url" : "https://www.call4paper.com/cfp/detail/event/XKSVNFNI12206218?v=subject",
    "saved" : 0
  },
  {
    "id" : 80,
    "name" : "ICCAR--IEEE, Ei & SCOPUS 2021",
    "type" : "Robotics",
    "date": "2021-04-23",
    "submitPaper": "2020-11-10",
    "description" : "IEEE--2021 The 7th International Conference on Control, Automation and Robotics (ICCAR 2021)--EI Compendex, Scopus (ICCAR--IEEE, Ei & SCOPUS 2021)",
    "latitude" : 1.357107,
    "longitude" : 103.8194992,
    "url" : "https://www.call4paper.com/cfp/detail/event/JWFKZSSS37272168?v=subject",
    "saved" : 0
  },
  {
    "id" : 82,
    "name" : "EI/SCOPUS-AMAE 2021",
    "type" : "Robotics",
    "date": "2021-05-14",
    "submitPaper": "2020-11-15",
    "description" : "5th International Conference on Aeronautical Materials and Aerospace Engineering (AMAE 2021) (EI/SCOPUS-AMAE 2021)",
    "latitude" : 39.9020803,
    "longitude" : 116.7185213,
    "url" : "https://www.call4paper.com/cfp/detail/event/QXCUEFYY34399037?v=subject",
    "saved" : 0
  },	{
  "id" : 83,
  "name" : "ICSRS--Scopus & EI 2020",
  "type" : "Cryptography",
  "date": "2020-12-16",
  "submitPaper": "2020-08-01",
  "description" : "2020 5th International Conference on System Reliability and Safety (ICSRS 2020)--Scopus & EI Compendex (ICSRS--Scopus & EI 2020)",
  "latitude" : 38.1112268,
  "longitude" : 13.3524434,
  "url" : "https://www.call4paper.com/cfp/detail/event/NDKHGYXA23236591?v=subject",
  "saved" : 0
},
  {
    "id" : 84,
    "name" : "ICPET 2020",
    "type" : "Cryptography",
    "date": "2020-12-16",
    "submitPaper": "2020-10-01",
    "description" : "2020 International Conference on Promising Electronic Technologies (ICPET 2020)",
    "latitude" : 31.4770571,
    "longitude" : 34.40493124714024,
    "url" : "https://www.call4paper.com/cfp/detail/event/LIZYGAZC30525411?v=subject",
    "saved" : 0
  },
  {
    "id" : 85,
    "name" : "IEEE EUC 2021",
    "type" : "Cryptography",
    "date": "2020-12-29",
    "submitPaper": "2020-07-29",
    "description" : "The 18th IEEE International Conference on Embedded and Ubiquitous Computing (IEEE EUC 2021)",
    "latitude" : 23.1301964,
    "longitude" : 113.2592945,
    "url" : "https://www.call4paper.com/cfp/detail/event/OZDQOCUM87183742?v=subject",
    "saved" : 0
  },
  {
    "id" : 86,
    "name" : "HICSS Cybersecurity/Privacy in Govt 2021",
    "type" : "Cryptography",
    "date": "2021-01-04",
    "submitPaper": "2020-07-15",
    "description" : "HICSS 54 Cybersecurity and Privacy in Government (HICSS Cybersecurity/Privacy in Govt 2021)",
    "latitude" : 21.87561235,
    "longitude" : -159.43928621770345,
    "url" : "https://www.call4paper.com/cfp/detail/event/EKAWSQVG71648055?v=subject",
    "saved" : 0
  },
  {
    "id" : 87,
    "name" : "Cyber Systems at HICSS 2021",
    "type" : "Cryptography",
    "date": "2021-01-05",
    "submitPaper": "2020-06-15",
    "description" : "Cyber Systems: Their Science, Engineering, and Security (Cyber Systems at HICSS 2021)",
    "latitude" : 22.050466550000003,
    "longitude" : -159.55876775017003,
    "url" : "https://www.call4paper.com/cfp/detail/event/ATFRGODF93351199?v=subject",
    "saved" : 0
  },
  {
    "id" : 88,
    "name" : "GBDE--EI Compendex, Scopus 2021",
    "type" : "Cryptography",
    "date": "2021-01-05",
    "submitPaper": "2020-09-10",
    "description" : "2021 Global Big Data Engineering Symposium (GBDE 2021)--EI Compendex, Scopus (GBDE--EI Compendex, Scopus 2021)",
    "latitude" : 39.9020803,
    "longitude" : 116.7185213,
    "url" : "https://www.call4paper.com/cfp/detail/event/DPVJMOIH58582998?v=subject",
    "saved" : 0
  },
  {
    "id" : 89,
    "name" : "ICCSP--ACM, Scopus, Ei 2021",
    "type" : "Cryptography",
    "date": "2021-01-08",
    "submitPaper": "2020-08-20",
    "description" : "ACM--2021 5th International Conference on Cryptography, Security and Privacy (ICCSP 2021)--Scopus, Ei Compendex (ICCSP--ACM, Scopus, Ei 2021)",
    "latitude" : 22.2305196,
    "longitude" : 113.5462439,
    "url" : "https://www.call4paper.com/cfp/detail/event/WIBDGNPX08779874?v=subject",
    "saved" : 0
  },
  {
    "id" : 91,
    "name" : "BDET--Ei Compendex and Scopus 2021",
    "type" : "Cryptography",
    "date": "2021-01-16",
    "submitPaper": "2020-08-20",
    "description" : "2021 3rd International Conference on Big Data Engineering and Technology (BDET 2021)--EI Compendex, Scopus (BDET--Ei Compendex and Scopus 2021)",
    "latitude" : 1.357107,
    "longitude" : 103.8194992,
    "url" : "https://www.call4paper.com/cfp/detail/event/QENLTRTB03704100?v=subject",
    "saved" : 0
  },
  {
    "id" : 92,
    "name" : "ICSAC 2021",
    "type" : "Cryptography",
    "date": "2021-01-18",
    "submitPaper": "2020-11-06",
    "description" : "1st Workshop on Industrial infrastructures Cyber Security for Advancing Collaborative manufacturing (ICSAC 2021)",
    "latitude" : 47.48138955,
    "longitude" : 19.14607278448202,
    "url" : "https://www.call4paper.com/cfp/detail/event/PSPWSVWY31336351?v=subject",
    "saved" : 0
  },
  {
    "id" : 93,
    "name" : "KST 2021",
    "type" : "Cryptography",
    "date": "2021-01-21",
    "submitPaper": "2020-10-31",
    "description" : "The 2021-13th International Conference on Knowledge and Smart Technology (KST 2021)",
    "latitude" : 12.931941,
    "longitude" : 100.9009534,
    "url" : "https://www.call4paper.com/cfp/detail/event/JDJPDIDM35902215?v=subject",
    "saved" : 0
  },
  {
    "id" : 94,
    "name" : "CNSA 2021",
    "type" : "Cryptography",
    "date": "2021-01-23",
    "submitPaper": "2020-08-01",
    "description" : "14th International Conference on Network Security & Applications (CNSA 2021)",
    "latitude" : 47.3744489,
    "longitude" : 8.5410422,
    "url" : "https://www.call4paper.com/cfp/detail/event/TAJTLZTP80902663?v=subject",
    "saved" : 0
  },
  {
    "id" : 95,
    "name" : "CCSEIT 2021",
    "type" : "Cryptography",
    "date": "2021-01-23",
    "submitPaper": "2020-08-01",
    "description" : "11th International Conference on Computer Science, Engineering and Information Technology (CCSEIT 2021)",
    "latitude" : 47.3744489,
    "longitude" : 8.5410422,
    "url" : "https://www.call4paper.com/cfp/detail/event/IEQUFULT46733867?v=subject",
    "saved" : 0
  },
  {
    "id" : 96,
    "name" : "ACM--ICSCM--Ei Compendex, Scopus 2021",
    "type" : "Cryptography",
    "date": "2021-01-30",
    "submitPaper": "2020-09-15",
    "description" : "ACM--2021 2nd International Conference on Supply Chain Management (ICSCM 2021)--Ei Compendex, Scopus (ACM--ICSCM--Ei Compendex, Scopus 2021)",
    "latitude" : 1.357107,
    "longitude" : 103.8194992,
    "url" : "https://www.call4paper.com/cfp/detail/event/DSIRELKL84709126?v=subject",
    "saved" : 0
  },
  {
    "id" : 98,
    "name" : "AutoSec 2021",
    "type" : "Cryptography",
    "date": "2021-02-21",
    "submitPaper": "2021-01-04",
    "description" : "3rd International Workshop on Automotive and Autonomous Vehicle Security (AutoSec 2021) co-located with NDSS 2021",
    "latitude" : 43.59047185,
    "longitude" : 3.8595132132013186,
    "url" : "https://www.call4paper.com/cfp/detail/event/OEZUPKJZ05004389?v=subject",
    "saved" : 0
  },
  {
    "id" : 99,
    "name" : "ICFL 2020",
    "type" : "Education",
    "date": "2020-12-17",
    "submitPaper": "2020-07-30",
    "description" : "2020 3rd International Conference on Future Learning (ICFL 2020)",
    "latitude" : 51.307322,
    "longitude" : -0.127643,
    "url" : "https://www.call4paper.com/cfp/detail/event/GFVEQATV09031234?v=country",
    "saved" : 0
  },
  {
    "id" : 100,
    "name" : "ICETM--Ei, Scopus 2020",
    "type" : "Education",
    "date": "2020-12-17",
    "submitPaper": "2020-07-30",
    "description" : "2020 3rd International Conference on Education Technology Management (ICETM 2020)--Ei Compendex, Scopus (ICETM--Ei, Scopus 2020)",
    "latitude" : 51.40733,
    "longitude" : -0.12765,
    "url" : "https://www.call4paper.com/cfp/detail/event/RSXLFWMI62452273?v=country",
    "saved" : 0
  },
  {
    "id" : 101,
    "name" : "ICETM--Ei Compendex, Scopus 2020",
    "type" : "Education",
    "date": "2020-12-17",
    "submitPaper": "2020-07-30",
    "description" : "2020 3rd International Conference on Education Technology Management (ICETM 2020)--Ei Compendex, Scopus (ICETM--Ei Compendex, Scopus 2020)",
    "latitude" : 51.8738,
    "longitude" : -0.12768,
    "url" : "https://www.call4paper.com/cfp/detail/event/URLSKWCC89852420?v=country",
    "saved" : 0
  },
  {
    "id" : 102,
    "name" : "13-ICGS3 2021",
    "type" : "General topics about Computer Science",
    "date": "2021-01-14",
    "submitPaper": "2020-09-03",
    "description" : "VIRTUAL 13th International Conference on Global Security, Safety & Sustainability, ICGS3-21 (13-ICGS3 2021)",
    "latitude" : 51.5003224,
    "longitude" : -0.1076474,
    "url" : "https://www.call4paper.com/cfp/detail/event/DPCMJSAS21957548?v=country",
    "saved" : 0
  },
  {
    "id" : 104,
    "name" : "EAI MindCare 2021",
    "type" : "General topics about Computer Science",
    "date": "2021-03-11",
    "submitPaper": "2020-11-05",
    "description" : "10th EAI International Conference on Pervasive Computing Paradigms for Mental Health (EAI MindCare 2021)",
    "latitude" : 51.52378255,
    "longitude" : -0.1399490000000005,
    "url" : "https://www.call4paper.com/cfp/detail/event/DLMTPFSC25840693?v=country",
    "saved" : 0
  },
  {
    "id" : 105,
    "name" : "ALA 2021",
    "type" : "Artificial Intelligence",
    "date": "2021-05-03",
    "submitPaper": "2021-02-10",
    "description" : "Adaptive and Learning Agents @ AAMAS 2021 (ALA 2021)",
    "latitude" : 51.50733,
    "longitude" : -0.0976410,
    "url" : "https://www.call4paper.com/cfp/detail/event/AEEKKFKW85944079?v=country",
    "saved" : 0
  },
  {
    "id" : 106,
    "name" : "EXTRAAMAS 2021",
    "type" : "Artificial Intelligence",
    "date": "2021-05-03",
    "submitPaper": "2021-02-22",
    "description" : "EXplainable and TRAnsparent AI and Multi-Agent Systems (EXTRAAMAS 2021)",
    "latitude" : 51.5074,
    "longitude" : -0.1076430,
    "url" : "https://www.call4paper.com/cfp/detail/event/RLEGQQVX22071368?v=country",
    "saved" : 0
  },
  {
    "id" : 107,
    "name" : "EVA London 2021",
    "type" : "Robotics",
    "date": "2021-07-05",
    "submitPaper": "2021-01-11",
    "description" : "Electronic Visualisation and the Arts London 2021 (EVA London 2021)",
    "latitude" : 51.7075,
    "longitude" : -0.1276460,
    "url" : "https://www.call4paper.com/cfp/detail/event/MGUFMYPO70152167?v=country",
    "saved" : 0
  },
  {
    "id" : 108,
    "name" : "ICMESM--Ei Compendex and Scopus 2021",
    "type" : "Material Engineering",
    "date": "2021-07-13",
    "submitPaper": "2021-02-25",
    "description" : "2021 6th International Conference on Material Engineering and Smart Materials (ICMESM 2021)--SCOPUS, Ei Compendex (ICMESM--Ei Compendex and Scopus 2021)",
    "latitude" : 51.49734,
    "longitude" : -0.0976474,
    "url" : "https://www.call4paper.com/cfp/detail/event/MCWMEUUR21521763?v=country",
    "saved" : 0
  },
  {
    "id" : 109,
    "name" : "ICMSN--MSF, SCOPUS, Ei 2021",
    "type" : "Material Engineering",
    "date": "2021-07-13",
    "submitPaper": "2021-02-25",
    "description" : "MSF--2021 The 5th International Conference on Materials Sciences and Nanomaterials (ICMSN 2021)--SCOPUS, Ei Compendex (ICMSN--MSF, SCOPUS, Ei 2021)",
    "latitude" : 51.5072,
    "longitude" : -0.1276440,
    "url" : "https://www.call4paper.com/cfp/detail/event/ZARFHJCU20411643?v=country",
    "saved" : 0
  },
  {
    "id" : 110,
    "name" : "ICMESM--Ei and Scopus 2021",
    "type" : "Material Engineering",
    "date": "2021-07-13",
    "submitPaper": "2021-02-25",
    "description" : "2021 6th International Conference on Material Engineering and Smart Materials (ICMESM 2021)--SCOPUS, Ei Compendex (ICMESM--Ei and Scopus 2021)",
    "latitude" : 51.5072,
    "longitude" : -0.1276440,
    "url" : "https://www.call4paper.com/cfp/detail/event/APKIMUEK61481583?v=country",
    "saved" : 0
  }
]